stop_id,stop_code,stop_name,stop_desc,stop_lat,stop_lon,zone_id,stop_url,location_type,parent_station,stop_timezone,wheelchair_boarding
s10000,,Piața V. Economu,,45.7647035,21.260256,,,,,,
s10060,,Sala Olimpia,,45.7461,21.24088,,,,,,
s10160,,Petre Țuțea,,45.79457,21.21588,,,,,,
s10161,,Praga,,45.79599,21.21139,,,,,,
s10181,,Ferventia,,45.80126,21.21097,,,,,,
s10186,,Tristan Tzara,,45.79075,21.22313,,,,,,
s10200,,București,,45.7991,21.20885,,,,,,
s10201,,Liiceanu,,45.80388,21.21431,,,,,,
s10220,,Cimitir G.Vii,,45.7989955,21.3075475,,,,,,
s10240,,Centru Carani,,45.91069,21.16411,,,,,,
s10260,,P-ta Dacia,,45.764482,21.218706,,,,,,
s10261,,C.D.Loga,,45.752827,21.2350535,,,,,,
s10262,,Carmen Sylva,,45.7540785,21.2363365,,,,,,
s10280,,Colegiul Bănățean,,45.74337,21.21278,,,,,,
s10281,,Colegiul Bănățean,,45.74331,21.21331,,,,,,
s10300,,Bulevardul Dâmbovița,,45.73969,21.19596,,,,,,
s10320,,Mareșal C. Prezan,,45.730474,21.2371975,,,,,,
s10340,,Holdelor,,45.77465,21.24049,,,,,,
s10360,,H.Coandă,,45.7564775,21.218616,,,,,,
s10380,,Aleea F.C. Ripensia,,45.749,21.23725,,,,,,
s10400,,Lic V.Țepeș,,45.744749,21.247105,,,,,,
s10420,,Mircea cel Bătrân,,45.7621245,21.205601,,,,,,
s10421,,Bărăgan,,45.761831,21.208164,,,,,,
s10440,,Cetății,,45.761984,21.2080625,,,,,,
s10441,,Bărăgan,,45.7622465,21.2054935,,,,,,
s10442,,Mircea cel Bătrân,,45.761931,21.2039165,,,,,,
s10460,,Darson Carani,,45.9128,21.14848,,,,,,
s10461,,Grădinița Covaci,,45.83385,21.23068,,,,,,
s10480,,Măslinului,,45.86061,21.16804,,,,,,
s10481,,Măslinului,,45.86076,21.16778,,,,,,
s10482,,Centru Sânandrei,,45.85551,21.16893,,,,,,
s10483,,Centru Sânandrei,,45.85564,21.16886,,,,,,
s10500,,Flora Sânandrei,,45.85352,21.16917,,,,,,
s10501,,Flora Sânandrei,,45.85345,21.16901,,,,,,
s10520,,Centru Carani,,45.912182,21.1640535,,,,,,
s10521,,Centru Carani,,45.91052,21.16415,,,,,,
s10540,,Strada IV_CXI,,45.6489295,21.157678,,,,,,
s10541,,Strada V_II,,45.652241,21.1617115,,,,,,
s10542,,Primărie Șag,,45.6514695,21.1695315,,,,,,
s10543,,Teren sport,,45.652515,21.1739435,,,,,,
s10544,,Strada XXIV,,45.655051,21.1976705,,,,,,
s10545,,Strada XXiV,,45.6553805,21.1933205,,,,,,
s10546,,Strada IV_II,,45.652855,21.155963,,,,,,
s10560,,Primărie Șag,,45.652321,21.161697,,,,,,
s10561,,Teren sport,,45.6515875,21.1693925,,,,,,
s10600,,Drumul cimitirului,,45.712932,21.03055,,,,,,
s10601,,Scoala Sanmihaiu G,,45.710989,21.030419,,,,,,
s10603,,Scoala S.G._,,45.710991,21.030181,,,,,,
s10620,,Strandul Termal_,,45.710246,21.038565,,,,,,
s10621,,Livada S.G._,,45.705075,21.081414,,,,,,
s10622,,Primarie S.Roman,,45.707905,21.090239,,,,,,
s10624,,Benzinarie S.R.,,45.696859,21.082826,,,,,,
s10625,,Strandul Termal,,45.710245,21.038564,,,,,,
s10626,,Livada S.G.,,45.705076,21.081415,,,,,,
s10627,,Balta Utvin,,45.712585,21.117185,,,,,,
s10628,,Balta Utvin_,,45.712575,21.11718,,,,,,
s10629,,Centru Utvin,,45.71515,21.12487,,,,,,
s10630,,Intrare Utvin,,45.71617,21.136205,,,,,,
s10631,,Intrare Utvin_,,45.71616,21.1362,,,,,,
s10640,,Centru Utvin_,,45.71514,21.12486,,,,,,
s10680,,Strada XXVII,,45.6545475,21.1826795,,,,,,
s10681,,Strada XX,,45.669046,21.169092,,,,,,
s10700,,Sadoveanu,,45.8100605,21.2224165,,,,,,
s10701,,Simfoniei,,45.8111895,21.226136,,,,,,
s10702,,Țuțea II,,45.809939,21.2301365,,,,,,
s10720,,Rebreanu,,45.808106,21.235275,,,,,,
s10721,,Crișurilor,,45.805175,21.236853,,,,,,
s10722,,Caragiale,,45.8023315,21.23536,,,,,,
s10723,,Bistrița,,45.7990275,21.2337815,,,,,,
s10724,,Arieș,,45.7962325,21.231622,,,,,,
s10728,,Jiul D,,45.793895,21.228643,,,,,,
s10729,,Arinului,,45.7918735,21.225982,,,,,,
s10740,,Ialomița 19,,45.7645045,21.295103,,,,,,
s10760,,Grădinilor,,45.750414,21.291949,,,,,,
s10780,,Cocorilor,,45.74934,21.2881,,,,,,
s10841,,Hodoni,,45.904806,21.08291,,,,,,
s10860,,Barateaz,,45.969659,21.092095,,,,,,
s10861,,Barateaz_,,45.969244,21.092089,,,,,,
s10863,,Satchinez1,,45.943002,21.035933,,,,,,
s10864,,Satchinez1_,,45.942773,21.036096,,,,,,
s10865,,Stachinez2,,45.938515,21.043447,,,,,,
s10866,,Satchinez2_,,45.938964,21.04353,,,,,,
s10900,,Profi Drubeta,,45.732257,21.228612,,,,,,
s10920,,Banul Severinului,,45.755182,21.186072,,,,,,
s10921,,Grigore Ureche,,45.757266,21.185649,,,,,,
s10922,,Rarau,,45.76012,21.185072,,,,,,
s10940,,Leroy Merlin_,,45.704974,21.186185,,,,,,
s10960,,Seceani2,,45.977081,21.319586,,,,,,
s10961,,Ortisoara2,,45.964847,21.200674,,,,,,
s10962,,Ortisoara2_,,45.965123,21.200602,,,,,,
s10980,,Calacea,,45.952013,21.143651,,,,,,
s10982,,Cornesti_cap,,45.915076,21.222873,,,,,,
s2650,,Moldovei,,45.76353,21.28746,,,,,,
s2652,,Câmpului,,45.76349,21.29297,,,,,,
s2653,,Moldovei ,,45.76359,21.28795,,,,,,
s2654,,Prieteniei ,,45.7637,21.28503,,,,,,
s2655,,Spartacus ,,45.76374,21.28136,,,,,,
s2656,,Bobâlna,,45.76386,21.276,,,,,,
s2661,,Vălișoara,,45.756,21.27533,,,,,,
s2663,,Luncani,,45.75736,21.27885,,,,,,
s2665,,Uzinei,,45.76022,21.2604,,,,,,
s2666,,Piața Mocioni,,45.74543,21.21504,,,,,,
s2667,,Bulevardul C. Brâncoveanu,,45.74237,21.21226,,,,,,
s2668,,Piața I. Maniu,,45.73856,21.2097,,,,,,
s2669,,Bulevardul L. Rebreanu,,45.73211,21.20835,,,,,,
s2671,,Gheorghe Barițiu,,45.74889,21.19952,,,,,,
s2672,,Gheorghe Barițiu,,45.74888,21.19956,,,,,,
s2673,,Shopping City,,45.72489,21.20261,,,,,,
s2675,,B.A.T.M.A.,,45.71791,21.19636,,,,,,
s2679,,O. Codruș,,45.71294,21.1922,,,,,,
s2680,,Metro,,45.70201,21.17893,,,,,,
s2682,,Monlandys,,45.69418,21.17654,,,,,,
s2684,,O. Codruș,,45.71325,21.19291,,,,,,
s2685,,B.A.T.M.A.,,45.71803,21.1968,,,,,,
s2687,,Shopping City,,45.72485,21.20192,,,,,,
s2690,,Bulevardul L. Rebreanu,,45.73315,21.20901,,,,,,
s2691,,Piața I. Maniu,,45.73958,21.21041,,,,,,
s2694,,Bulevardul C. Brâncoveanu,,45.74333,21.21333,,,,,,
s2695,,Piața Mocioni,,45.74615,21.21604,,,,,,
s2701,,Constantin Brâncoveanu,,45.7424,21.21316,,,,,,
s2702,,Regele Carol,,45.74526,21.21114,,,,,,
s2703,,Snagov,,45.73835,21.21597,,,,,,
s2704,,Regele Carol,,45.74518,21.21194,,,,,,
s2705,,Bulevardul L. Rebreanu,,45.73238,21.21895,,,,,,
s2706,,Traian Grozăvescu,,45.75454,21.2339,,,,,,
s2707,,Mureș,,45.72874,21.21861,,,,,,
s2708,,Piața Mocioni,,45.74632,21.21555,,,,,,
s2710,,Piața Mocioni,,45.74636,21.21552,,,,,,
s2713,,E. Zola,,45.72465,21.21734,,,,,,
s2714,,Herculane,,45.72177,21.21507,,,,,,
s2715,,Chișodei,,45.72007,21.21192,,,,,,
s2716,,Cluj,,45.74335,21.23713,,,,,,
s2717,,Bujorilor,,45.71921,21.20749,,,,,,
s2719,,Eternității,,45.71827,21.20382,,,,,,
s2720,,Calea Martirilor,,45.73813,21.23805,,,,,,
s2722,,Calea Martirilor,,45.73892,21.23837,,,,,,
s2723,,Eternității,,45.71817,21.20387,,,,,,
s2724,,Martir I. Stanciu,,45.73436,21.23767,,,,,,
s2726,,Martir I. Stanciu,,45.7346,21.23799,,,,,,
s2727,,Piața Maria,,45.74833,21.21841,,,,,,
s2728,,Mareșal C. Prezan,,45.7315,21.23828,,,,,,
s2730,,Chișodei,,45.72032,21.21234,,,,,,
s2732,,Mareșal C. Prezan,,45.73195,21.23771,,,,,,
s2733,,Herculane,,45.72179,21.21534,,,,,,
s2734,,E.Zola,,45.72456,21.21791,,,,,,
s2735,,Prințul Turcesc,,45.75688,21.25528,,,,,,
s2736,,Mureș,,45.73001,21.21887,,,,,,
s2738,,Prințul Turcesc,,45.75716,21.25576,,,,,,
s2739,,Bulevardul L. Rebreanu,,45.73372,21.21915,,,,,,
s2740,,Ciprian Porumbescu,,45.7388,21.21593,,,,,,
s2745,,Piața Sarmisegetusa,,45.75908,21.25794,,,,,,
s2747,,Piața Sarmisegetusa,,45.75936,21.25822,,,,,,
s2748,,Lalelelor,,45.76205,21.26038,,,,,,
s2749,,Lalelelor,,45.76237,21.26055,,,,,,
s2752,,Spitalul V. Babeș,,45.76941,21.26048,,,,,,
s2753,,Spitalul V. Babeș,,45.76941,21.26031,,,,,,
s2754,,Stația Meteo,,45.77189,21.25893,,,,,,
s2755,,Stația Meteo,,45.7719,21.25963,,,,,,
s2756,,C.P. Solventul,,45.74753,21.1905,,,,,,
s2759,,Gelu,,45.7486,21.19698,,,,,,
s2760,,Gelu,,45.74852,21.19585,,,,,,
s2761,,U.M.T.,,45.77157,21.25486,,,,,,
s2763,,Arena Electrica,,45.769946,21.251737,,,,,,
s2764,,Pop de Băsești,,45.74962,21.20199,,,,,,
s2765,,Arena Electrica,,45.7698935,21.2519095,,,,,,
s2766,,Gara de Est,,45.76659,21.24497,,,,,,
s2767,,Gara de Est,,45.76675,21.24537,,,,,,
s2768,,Gara de Nord,,45.75038,21.20814,,,,,,
s2772,,Jiul,,45.75185,21.21691,,,,,,
s2773,,Jiul,,45.75192,21.21642,,,,,,
s2781,,Piața 700,,45.75665,21.22493,,,,,,
s2793,,I.I. de la Brad,,45.78094,21.23522,,,,,,
s2794,,I.I. de la Brad,,45.78002,21.23459,,,,,,
s2798,,Poliția Jud. Timiș,,45.76031,21.24079,,,,,,
s2799,,Catedrala Mitropolitană,,45.75078,21.22513,,,,,,
s2800,,Poliția Jud. Timiș,,45.76082,21.24143,,,,,,
s2806,,Pasaj Michelangelo,,45.74881,21.23478,,,,,,
s2807,,Universitatea de Vest,,45.74805,21.23064,,,,,,
s2809,,Pod Mit. Șaguna,,45.74808,21.22517,,,,,,
s2810,,Crizantemelor,,45.73808,21.20302,,,,,,
s2812,,Bulevardul Dâmbovița,,45.73687,21.1973,,,,,,
s2813,,Opre Gogu,,45.73366,21.19178,,,,,,
s2814,,Opre Gogu,,45.73359,21.1919,,,,,,
s2815,,Păcii,,45.73195,21.18906,,,,,,
s2816,,V. Simionescu,,45.72921,21.18492,,,,,,
s2819,,V. Simionescu,,45.72913,21.18505,,,,,,
s2820,,Păcii 2a,,45.73186,21.18919,,,,,,
s2821,,Bulevardul Dâmbovița,,45.73699,21.1983,,,,,,
s2822,,Transilvania,,45.73801,21.20305,,,,,,
s2823,,Renașterii,,45.76372,21.25599,,,,,,
s2824,,Renașterii,,45.76389,21.25531,,,,,,
s2826,,Universitatea de Vest,,45.74791,21.2317,,,,,,
s2828,,Iepurelui,,45.7548,21.25091,,,,,,
s2829,,Liceul Calderon,,45.75432,21.2425,,,,,,
s2830,,Liceul Calderon,,45.7543,21.24328,,,,,,
s2831,,Pestalozzi,,45.75354,21.23978,,,,,,
s2833,,Pasaj Michelangelo,,45.74952,21.23706,,,,,,
s2837,,Bujorilor,,45.72344,21.20674,,,,,,
s2838,,Bulevardul V. Pârvan,,45.75404,21.24112,,,,,,
s2839,,Iepurelui,,45.75472,21.25194,,,,,,
s2841,,Căprioarei,,45.7536,21.26348,,,,,,
s2842,,Levănțica,,45.75154,21.26324,,,,,,
s2880,,Bulevardul Dâmbovița,,45.7403,21.19665,,,,,,
s2881,,Bulevardul Dâmbovița,,45.74019,21.19616,,,,,,
s2882,,Crizantemelor,,45.74173,21.20117,,,,,,
s2883,,Crizantemelor,,45.74191,21.2016,,,,,,
s2884,,Mangalia,,45.7426,21.20369,,,,,,
s2885,,Mangalia,,45.74279,21.20412,,,,,,
s2886,,Piața I. Maniu,,45.7441385,21.2088585,,,,,,
s2887,,Piața I. Maniu,,45.7437195,21.2072015,,,,,,
s2888,,Regele Carol,,45.74489,21.21115,,,,,,
s2889,,Piața I. Maniu,,45.74005,21.20937,,,,,,
s2920,,Opre Gogu,,45.73622,21.18812,,,,,,
s2921,,Opre Gogu,,45.736415,21.188513,,,,,,
s2922,,Canton C.F.R.,,45.73136,21.18098,,,,,,
s2923,,Canton C.F.R.,,45.73171,21.18109,,,,,,
s2924,,Liceul Auto,,45.72806,21.18068,,,,,,
s2925,,Liceul Auto,,45.72806,21.18076,,,,,,
s2926,,C.I. Nottara,,45.72356,21.17506,,,,,,
s2927,,C.I. Nottara,,45.72371,21.17551,,,,,,
s2928,,Răscoala din 1907,,45.72087,21.17094,,,,,,
s2929,,Răscoala din 1907,,45.72104,21.17142,,,,,,
s2946,,Polonă,,45.72166,21.1641,,,,,,
s2947,,F.Z.B.,,45.72084,21.15723,,,,,,
s2948,,F.Z.B.,,45.72098,21.1581,,,,,,
s2949,,Abator,,45.719391,21.15168,,,,,,
s2950,,Liege,,45.775345,21.2212515,,,,,,
s2951,,Liege,,45.77421,21.22153,,,,,,
s2952,,Dacia Service,,45.7696,21.22325,,,,,,
s2953,,U.T.T.,,45.77892,21.22048,,,,,,
s2954,,U.T.T.,,45.77806,21.22042,,,,,,
s2955,,Institutul Agronomic,,45.78312,21.2194,,,,,,
s2956,,Institutul Agronomic,,45.78345,21.21884,,,,,,
s2957,,Calea Torontalului,,45.77215,21.21677,,,,,,
s2960,,Piața Verde,,45.77472,21.22085,,,,,,
s2961,,Remus Răduleț,,45.77077,21.22309,,,,,,
s2962,,Ap. Petru și Pavel,,45.77728,21.23376,,,,,,
s2963,,Ap. Petru și Pavel,,45.7765,21.23304,,,,,,
s2964,,Div 9 Cavalerie,,45.76984,21.23068,,,,,,
s2965,,Piața C. Europei,,45.76549,21.22547,,,,,,
s2966,,Piața C. Europei,,45.76303,21.22573,,,,,,
s2967,,Oituz,,45.75881,21.23203,,,,,,
s2968,,A. Popovici,,45.75907,21.23633,,,,,,
s2971,,Piața V. Economu,,45.76559,21.26104,,,,,,
s2972,,Piața V. Economu,,45.76527,21.25999,,,,,,
s2973,,Arena Aqua,,45.76975,21.26951,,,,,,
s2974,,Arena Aqua,,45.76943,21.26749,,,,,,
s2976,,I.C. Brătianu,,45.75331,21.22892,,,,,,
s2977,,A Șaguna,,45.74824,21.22569,,,,,,
s2980,,Complex Studențesc,,45.74815,21.23527,,,,,,
s3000,,Spitalul Județean,,45.73864,21.2409,,,,,,
s3002,,Bulevardul Sudului,,45.7361,21.24977,,,,,,
s3003,,Cvartal Sudului,,45.73405,21.24855,,,,,,
s3004,,Cvartal Sudului,,45.73443,21.24896,,,,,,
s3005,,Bulevardul Sudului (buclă),,45.73206,21.24732,,,,,,
s3006,,Bulevardul Sudului (buclă),,45.73166,21.24749,,,,,,
s3007,,Piața 700,,45.75806,21.22434,,,,,,
s3008,,Piața 700,,45.75791,21.22434,,,,,,
s3011,,Timiș,,45.762,21.21364,,,,,,
s3012,,Timiș,,45.76182,21.21373,,,,,,
s3013,,Bulevardul Cetății,,45.76337,21.20968,,,,,,
s3014,,Bulevardul Cetății,,45.76265,21.21145,,,,,,
s3015,,Piața A. Iancu,,45.764282,21.205783,,,,,,
s3016,,Piața A. Iancu,,45.764499,21.2057085,,,,,,
s3017,,Vuk Karadjic,,45.7646685,21.204334,,,,,,
s3018,,Vuk Karadjic,,45.7652995,21.202562,,,,,,
s3019,,Grigore Alexandrescu,,45.7666815,21.1951875,,,,,,
s3020,,Grigore Alexandrescu,,45.766572,21.1951935,,,,,,
s3021,,Piața de Gros,,45.7659725,21.191792,,,,,,
s3022,,Piața de Gros,,45.765964,21.1921825,,,,,,
s3041,,Prezan (buclă),,45.73178,21.2411,,,,,,
s3060,,Piața Mărăști,,45.7592,21.22763,,,,,,
s3080,,Piața Mărăști,,45.75939,21.2288,,,,,,
s3102,,Piața Regina Maria,,45.75325,21.22275,,,,,,
s3103,,Piața Badea Cârțan,,45.76269,21.24858,,,,,,
s3104,,Piața Badea Cârțan,,45.76248,21.24633,,,,,,
s3105,,Piața Regina Maria,,45.7529,21.22078,,,,,,
s3106,,Gara de Nord,,45.75054,21.20808,,,,,,
s3107,,C.P. Solventul,,45.74753,21.19052,,,,,,
s3120,,Pop de Băsești,,45.74949,21.20203,,,,,,
s3160,,Samuil Micu,,45.76346,21.25224,,,,,,
s3161,,Samuil Micu,,45.76358,21.25138,,,,,,
s3163,,Catedrala Mitropolitană,,45.75157,21.22356,,,,,,
s3164,,Piața 700,,45.75632,21.22284,,,,,,
s3165,,Piața 700,,45.75636,21.22285,,,,,,
s3166,,Piața Libertății,,45.75601,21.22655,,,,,,
s3167,,Piața Libertății,,45.75604,21.22656,,,,,,
s3168,,Hotel Continental,,45.75578,21.23183,,,,,,
s3169,,Hotel Continental,,45.75562,21.2339,,,,,,
s3170,,Prefectură,,45.75568,21.23849,,,,,,
s3171,,Prefectură,,45.75571,21.23849,,,,,,
s3172,,Bulevardul 3 August 1919,,45.75675,21.24477,,,,,,
s3173,,Bulevardul 3 August 1919,,45.75673,21.24443,,,,,,
s3174,,Piața Traian,,45.75753,21.2489,,,,,,
s3175,,Piața Traian,,45.75759,21.24871,,,,,,
s3176,,Piața V. Economu,,45.76512,21.26067,,,,,,
s3177,,Piața V. Economu,,45.76581,21.26062,,,,,,
s3181,,Piața Maria,,45.748889,21.2189865,,,,,,
s3200,,Catedrala Mitropolitană,,45.75074,21.22514,,,,,,
s3220,,Traian Grozăvescu,,45.75477,21.2336,,,,,,
s3224,,Popa Șapcă,,45.76056,21.23261,,,,,,
s3225,,Popa Șapcă,,45.76049,21.23282,,,,,,
s3240,,Div 9 Cavalerie,,45.769,21.23244,,,,,,
s3241,,Complex Terra,,45.76805,21.23676,,,,,,
s3243,,Gara de Nord,,45.75039,21.20713,,,,,,
s3244,,Gara de Nord,,45.75043,21.20714,,,,,,
s3245,,Gara de Est,,45.7675,21.24467,,,,,,
s3247,,Stuparilor,,45.77302,21.24592,,,,,,
s3248,,Holdelor,,45.77541,21.23869,,,,,,
s3249,,U.M.T.,,45.77176,21.25594,,,,,,
s3250,,Stuparilor,,45.77292,21.24586,,,,,,
s3253,,Piața Badea Cârțan,,45.76289,21.24748,,,,,,
s3254,,Piața Badea Cârțan,,45.76237,21.24777,,,,,,
s3255,,Div 9 Cavalerie,,45.76926,21.23007,,,,,,
s3260,,Iulius Mall,,45.76553,21.23119,,,,,,
s3280,,Pomiculturii,,45.77318,21.23164,,,,,,
s3281,,Pomiculturii,,45.77317,21.23197,,,,,,
s3361,,Cimitirul Eroilor,,45.76815,21.22689,,,,,,
s3362,,Cimitirul Eroilor,,45.76837,21.22582,,,,,,
s3400,,Iosif Vucan ,,45.75898,21.2588,,,,,,
s3401,,Rudolf Walter,,45.75433,21.26961,,,,,,
s3402,,Rudolf Walter,,45.75447,21.26969,,,,,,
s3403,,Albăstrelelor,,45.75461,21.27581,,,,,,
s3405,,V. Cârlova,,45.75683,21.26345,,,,,,
s3406,,Iokai Mor,,45.75344,21.28008,,,,,,
s3408,,C. Popescu,,45.751451,21.283013,,,,,,
s3411,,A. Șaguna ,,45.75735,21.25609,,,,,,
s3412,,Circumvalațiunii,,45.76055,21.21743,,,,,,
s3413,,Circumvalațiunii,,45.75961,21.21923,,,,,,
s3420,,Școala Plopi,,45.7501,21.27974,,,,,,
s3461,,Abator plecare,,45.719307,21.151774,,,,,,
s3503,,Vălișoara,,45.75605,21.27536,,,,,,
s3505,,Țițeica,,45.75997,21.27718,,,,,,
s3506,,Aleea Ghirodei,,45.76374,21.27545,,,,,,
s3507,,Mătăsarilor,,45.76374,21.26259,,,,,,
s3540,,Calea Torontalului,,45.76916,21.21976,,,,,,
s3542,,M. Basarab,,45.76785,21.21684,,,,,,
s3543,,M. Basarab,,45.76769,21.21661,,,,,,
s3544,,Amforei,,45.76549,21.21311,,,,,,
s3545,,Amforei,,45.76539,21.21304,,,,,,
s3546,,Cetății,,45.76362,21.21104,,,,,,
s3547,,Cetății,,45.76271,21.21053,,,,,,
s3548,,Balta Verde,,45.75827,21.20945,,,,,,
s3549,,Balta Verde,,45.75776,21.20988,,,,,,
s3550,,Mendeleev,,45.75701,21.21347,,,,,,
s3551,,Mendeleev,,45.75697,21.21405,,,,,,
s3552,,Circumvalațiunii,,45.7567,21.21655,,,,,,
s3553,,Circumvalațiunii,,45.7583505,21.2178365,,,,,,
s3554,,Fabrica de Bere,,45.7531,21.25018,,,,,,
s3556,,Fabrica de Bere,,45.75307,21.25027,,,,,,
s3560,,Cimitir Buziaș,,45.74789,21.25369,,,,,,
s3561,,Cimitir Buziaș,,45.74779,21.25366,,,,,,
s3563,,F-ca de Detergenți,,45.74371,21.25526,,,,,,
s3564,,Mecatim,,45.73924,21.25693,,,,,,
s3565,,Mecatim,,45.73888,21.2571,,,,,,
s3566,,Gheorghe Domășnean,,45.73391,21.25892,,,,,,
s3567,,Gheorghe Domășnean,,45.73392,21.25897,,,,,,
s3568,,Electrotimiș,,45.7323,21.26098,,,,,,
s3569,,Electrotimiș,,45.73256,21.26063,,,,,,
s3571,,I.O.T.,,45.73053,21.26477,,,,,,
s3572,,I.O.T.,,45.73037,21.26544,,,,,,
s3573,,Ciarda Roșie,,45.72937,21.26897,,,,,,
s3574,,Ciarda Roșie,,45.72953,21.26849,,,,,,
s3580,,Gheorghe Domășnean,,45.73362,21.25837,,,,,,
s3581,,Gheorghe Domășnean,,45.73359,21.25834,,,,,,
s3582,,Bulevardul Sudului,,45.73711,21.25097,,,,,,
s3583,,Bulevardul Sudului,,45.73723,21.25003,,,,,,
s3584,,Spitalul Județean,,45.73842,21.24022,,,,,,
s3585,,Spitalul Județean,,45.73838,21.24037,,,,,,
s3586,,Calea Martirilor,,45.73859,21.23863,,,,,,
s3587,,Calea Martirilor,,45.73849,21.23784,,,,,,
s3588,,Salcâmilor,,45.73651,21.23123,,,,,,
s3589,,Salcâmilor,,45.73633,21.2308,,,,,,
s3590,,Drubeta,,45.73528,21.22726,,,,,,
s3591,,Drubeta,,45.73496,21.2264,,,,,,
s3592,,Bulevardul C. Brâncoveanu ,,45.73299,21.21949,,,,,,
s3593,,Bulevardul C. Brâncoveanu ,,45.73289,21.21874,,,,,,
s3594,,Gheorghe Ranetti,,45.7326,21.21363,,,,,,
s3595,,Gheorghe Ranetti,,45.73253,21.21302,,,,,,
s3596,,Bulevardul L. Rebreanu,,45.73258,21.2092,,,,,,
s3597,,Bulevardul L. Rebreanu,,45.73262,21.20831,,,,,,
s3598,,Transilvania,,45.73379,21.20253,,,,,,
s3599,,Transilvania,,45.73407,21.20139,,,,,,
s3600,,Banatul,,45.73673,21.19791,,,,,,
s3601,,Banatul,,45.73655,21.19802,,,,,,
s3602,,Bulevardul Dâmbovița,,45.73954,21.19592,,,,,,
s3620,,Bulevardul Dâmbovița,,45.7398,21.19606,,,,,,
s3640,,Macilor,,45.75884,21.20377,,,,,,
s3641,,Macilor,,45.75884,21.20372,,,,,,
s3642,,A. Lăpușneanu,,45.75873,21.20026,,,,,,
s3643,,A. Lăpușneanu,,45.75873,21.20023,,,,,,
s3644,,Grigore Alexandrescu,,45.75769,21.19573,,,,,,
s3645,,Grigore Alexandrescu,,45.75769,21.19569,,,,,,
s3646,,Madona,,45.75591,21.19246,,,,,,
s3647,,Madona,,45.75591,21.19243,,,,,,
s3648,,A. Guttenbrun,,45.75238,21.1898,,,,,,
s3649,,A. Guttenbrun,,45.75234,21.1898,,,,,,
s3650,,Războieni,,45.75109,21.18954,,,,,,
s3651,,Războieni,,45.75109,21.18959,,,,,,
s3652,,Ronaț,,45.74982,21.19002,,,,,,
s3653,,Ronaț,,45.74985,21.19001,,,,,,
s3660,,Parc Doina,,45.74471,21.22207,,,,,,
s3661,,Parc Doina,,45.74441,21.22244,,,,,,
s3662,,Piața Bălcescu,,45.74189,21.22496,,,,,,
s3663,,Piața Bălcescu,,45.7419,21.22501,,,,,,
s3664,,Piața Crucii,,45.74178,21.23219,,,,,,
s3680,,Piața Crucii,,45.74202,21.23264,,,,,,
s3681,,Cluj,,45.7436,21.23673,,,,,,
s3682,,Cluj,,45.74381,21.23726,,,,,,
s3683,,Olimpia,,45.7452,21.24118,,,,,,
s3684,,Olimpia,,45.74539,21.24169,,,,,,
s3685,,Deliblata,,45.74697,21.24626,,,,,,
s3686,,Deliblata,,45.74716,21.24668,,,,,,
s3720,,Piața 700,,45.75653,21.22319,,,,,,
s3741,,Fac. de Electrotehnică,,45.74767,21.22636,,,,,,
s3820,,DN6,,45.7758235,21.3049835,,,,,,
s3821,,DN6,,45.775708,21.30324,,,,,,
s3840,,Aeroport Civil,,45.8099,21.31997,,,,,,
s3860,,UM Aeroport,,45.7985075,21.331178,,,,,,
s3862,,Aeroport Civil II,,45.81019,21.31934,,,,,,
s3881,,Cartier Aeroport II,,45.79535,21.32527,,,,,,
s4000,,Bastion,,45.75804,21.23428,,,,,,
s4041,,Banatim,,45.74877,21.25239,,,,,,
s4042,,Banatim,,45.74884,21.25283,,,,,,
s4100,,Baader,,45.76258,21.24476,,,,,,
s4320,,Gara de Est,,45.76608,21.24526,,,,,,
s4321,,Gara de Est,,45.7668,21.24543,,,,,,
s4322,,U.M.T.,,45.77175,21.2554,,,,,,
s4323,,U.M.T.,,45.7718,21.25537,,,,,,
s4324,,Cvartal U.M.T.,,45.77551,21.26291,,,,,,
s4325,,Cvartal U.M.T.,,45.77555,21.26287,,,,,,
s4341,,Muzeul Satului,,45.77712,21.26604,,,,,,
s4420,,Piața Regina Maria,,45.7528,21.22082,,,,,,
s4421,,Gara de Sud,,45.71632,21.203,,,,,,
s4424,,Baba Dochia ,,45.75578,21.25431,,,,,,
s4427,,Gheorghe Domășnean,,45.73289,21.25835,,,,,,
s4428,,Ap. Petru și Pavel,,45.77669,21.23368,,,,,,
s4429,,Apicultorilor,,45.72152,21.23655,,,,,,
s4431,,Drubeta,,45.73478,21.22682,,,,,,
s4462,,Selgros,,45.78561,21.2183,,,,,,
s4464,,Pop de Băsești,,45.74907,21.20286,,,,,,
s4465,,Pop de Băsești,,45.7491,21.20301,,,,,,
s4483,,Gara de Nord,,45.75054,21.20805,,,,,,
s4484,,Gheorghe Lazăr,,45.76039,21.21873,,,,,,
s4486,,Piața Dacia,,45.7634,21.22169,,,,,,
s4490,,Ab.C.Europei 2,,45.765631,21.223703,,,,,,
s4491,,Piața C. Europei,,45.7647,21.22451,,,,,,
s4492,,Miresei,,45.76854,21.22052,,,,,,
s4493,,Miresei,,45.7680625,21.221086,,,,,,
s4494,,Calea Torontalului,,45.77287,21.2164,,,,,,
s4496,,Liege,,45.77583,21.22135,,,,,,
s4501,,Regele Carol,,45.743752,21.2067705,,,,,,
s4502,,Regele Carol,,45.7435,21.2065935,,,,,,
s4503,,Pod Calea Șagului,,45.7229525,21.200947,,,,,,
s4504,,Pod Calea Șagului,,45.72248,21.20065,,,,,,
s4582,,Piața C. Europei,,45.76514,21.22441,,,,,,
s4640,,Catedrala Mitropolitană,,45.75115,21.2236,,,,,,
s4680,,Calea Torontalului,,45.76917,21.21978,,,,,,
s4700,,Spumotim,,45.73741,21.25762,,,,,,
s4701,,Spumotim,,45.73707,21.2578,,,,,,
s4720,,F-ca de Detergenți,,45.74408,21.25506,,,,,,
s4760,,Piața Veteranilor,,45.72791,21.20468,,,,,,
s4780,,Piața Veteranilor,,45.72876,21.20609,,,,,,
s4800,,Balta Verde,,45.75802,21.2091,,,,,,
s4820,,Prefatim,,45.7142,21.21243,,,,,,
s4840,,Prefatim,,45.71431,21.21229,,,,,,
s4860,,Spitalul Județean,,45.738,21.24226,,,,,,
s4920,,Piața Maria,,45.74884,21.21929,,,,,,
s4980,,Lidia,,45.73242,21.22768,,,,,,
s4981,,Lidia,,45.73195,21.22786,,,,,,
s5000,,Tv-Mureș,,45.72896,21.22727,,,,,,
s5001,,Mureș,,45.72908,21.22734,,,,,,
s5020,,Pavlov,,45.72352,21.22642,,,,,,
s5021,,Pavlov,,45.72329,21.22599,,,,,,
s5040,,Progresul,,45.72385,21.22188,,,,,,
s5041,,Progresul,,45.72389,21.22135,,,,,,
s5060,,Izlaz,,45.72533,21.21409,,,,,,
s5061,,Izlaz,,45.72539,21.21361,,,,,,
s5080,,Chișodei,,45.72639,21.20897,,,,,,
s5081,,Chișodei,,45.72642,21.209,,,,,,
s5100,,Piața Veteranilor,,45.72883,21.2047,,,,,,
s5101,,Piața Veteranilor,,45.72857,21.20485,,,,,,
s5120,,Transilvania,,45.73361,21.20191,,,,,,
s5140,,Memorandului,,45.73871,21.22506,,,,,,
s5141,,Memorandului,,45.73871,21.2251,,,,,,
s5160,,Drubeta,,45.73536,21.22654,,,,,,
s5180,,Victor Hugo,,45.72483,21.21777,,,,,,
s5181,,Victor Hugo,,45.72435,21.21739,,,,,,
s5200,,Pasaj C.F.,,45.763665,21.1816795,,,,,,
s5220,,Dedeman,,45.76864,21.23528,,,,,,
s5240,,Hector,,45.7564,21.23397,,,,,,
s5260,,Hotel Continental,,45.7551,21.23323,,,,,,
s5282,,Mureș,,45.72806,21.237,,,,,,
s5283,, Mureș,,45.72903,21.23739,,,,,,
s5320,,Fac. de Mecanică,,45.74492,21.22549,,,,,,
s5321,,Piața Bălcescu,,45.74181,21.22521,,,,,,
s5340,,Pod Calea Șagului,,45.72191,21.19986,,,,,,
s5360,,Bulevardul C. Brâncoveanu ,,45.7387,21.21696,,,,,,
s5361,,Porumbescu,,45.7399,21.22138,,,,,,
s5380,,Piața Bălcescu,,45.7424,21.22612,,,,,,
s5400,,Fac. de Mecanică,,45.745,21.22577,,,,,,
s5440,,Uzinei,,45.76026,21.26026,,,,,,
s5460,,Ismail,,45.75981,21.27953,,,,,,
s5480,,Cărăbușului,,45.76369,21.28079,,,,,,
s5481,,Prieteniei,,45.76356,21.28503,,,,,,
s5500,,Leroy Merlin,,45.70518,21.18583,,,,,,
s5501,,Brico Depot,,45.7073485,21.188012,,,,,,
s5580,,Parc Moșnița Nouă,,45.71902,21.32293,,,,,,
s5600,,Cămin Cultural,,45.73348,21.33393,,,,,,
s5640,,Bucla Urseni,,45.6906,21.30289,,,,,,
s5641,,Intrare Urseni,,45.69646,21.31057,,,,,,
s5642,,Intrare Urseni,,45.69648,21.31018,,,,,,
s5660,,Ferma 5,,45.70905,21.3205,,,,,,
s5661,,Ferma 5,,45.70913,21.32036,,,,,,
s5680,,Parc Moșnița Nouă,,45.71907,21.32217,,,,,,
s5681,,Agricultorilor,,45.72123,21.32808,,,,,,
s5700,,Agricultorilor,,45.7209,21.32772,,,,,,
s5701,,Serena,,45.72486,21.33035,,,,,,
s5702,,Serena,,45.72474,21.33012,,,,,,
s5720,,Cova Ghera,,45.72009,21.31625,,,,,,
s5721,,Cova Ghera,,45.7203,21.31577,,,,,,
s5740,,Otniel,,45.72132,21.30929,,,,,,
s5741,,Otniel,,45.72142,21.30934,,,,,,
s5760,,Motelețul,,45.72436,21.29145,,,,,,
s5761,,Motelețul,,45.72444,21.29183,,,,,,
s5780,,Ialomița,,45.76621,21.30401,,,,,,
s5800,,Ialomița,,45.76573,21.30433,,,,,,
s5820,,Primăria Ghiroda,,45.77052,21.30264,,,,,,
s5840,,Primăria Ghiroda,,45.77076,21.30272,,,,,,
s5841,,Lugojului,,45.772843,21.301903,,,,,,
s5940,,Bastion,,45.75765,21.23308,,,,,,
s5960,,Comtim,,45.71914,21.15084,,,,,,
s5961,,Polonă,,45.72192,21.16355,,,,,,
s5962,,Podgoriei,,45.72561,21.17832,,,,,,
s5963,,Podgoriei,,45.72582,21.17878,,,,,,
s5964,,Liceul Auto,,45.7273,21.18142,,,,,,
s5965,,Liceul Auto,,45.72717,21.18143,,,,,,
s5980,,VGP Park,,45.788655,21.322538,,,,,,
s6001,,PITT,,45.79659,21.17474,,,,,,
s6003,,Metro,,45.793887,21.1857525,,,,,,
s6020,,Swoboda,,45.79681,21.32008,,,,,,
s6021,,Swoboda,,45.79682,21.31986,,,,,,
s6022,,Câmpului,,45.7635,21.29299,,,,,,
s6025,,Semenic,,45.77588,21.30664,,,,,,
s6026,,Bușteni,,45.77315,21.30748,,,,,,
s6027,,Sinaia,,45.77155,21.30765,,,,,,
s6040,,Păcii,,45.73435,21.18508,,,,,,
s6041,,Păcii,,45.73418,21.18501,,,,,,
s6100,,Turda,,45.7647955,21.267318,,,,,,
s6120,,Bastion,,45.75764,21.23306,,,,,,
s6140,,Al. Pădurea Verde,,45.77384,21.26995,,,,,,
s6141,,Al. Pădurea Verde,,45.77405,21.27006,,,,,,
s6142,,Giarmata Vii,,45.80181,21.29508,,,,,,
s6144,,Giarmata Vii,,45.80176,21.29501,,,,,,
s6145,,Biserica G.Vii1,,45.797355,21.3017295,,,,,,
s6146,,Biserica G.Vii2,,45.799623,21.298481,,,,,,
s6180,,Gh.Lazăr,,45.75959,21.21806,,,,,,
s6181,,Piața Dacia,,45.76337,21.2213,,,,,,
s6200,,Traian Grozăvescu,,45.75445,21.2341,,,,,,
s6240,,Jumbo,,45.7848,21.31143,,,,,,
s6241,,Jumbo,,45.78479,21.31144,,,,,,
s6260,,Comtim p,,45.7192,21.15075,,,,,,
s6800,,Metro,,45.79398,21.18576,,,,,,
s6840,,Brediceanu,,45.75612,21.22123,,,,,,
s6841,,Brediceanu,,45.75613,21.22119,,,,,,
s6861,,Corbului,,45.73948,21.21958,,,,,,
s6940,,Apateu,,45.74662,21.26289,,,,,,
s6941,,Levănțica,,45.75172,21.26334,,,,,,
s6943,,V. Cârlova,,45.75647,21.26388,,,,,,
s6960,,Iosif Vulcan,,45.75908,21.25827,,,,,,
s6980,,Albăstrelelor,,45.75446,21.27613,,,,,,
s7040,,Vox Park,,45.77542,21.21369,,,,,,
s7041,,Vox Park,,45.77534,21.21355,,,,,,
s7060,,Pod Sânmihaiu R.,,45.706206,21.091553,,,,,,
s7061,,Pod Sânmihaiu R.,,45.70606,21.091724,,,,,,
s7062,,I.Creangă,,45.8063,21.21863,,,,,,
s7080,,Hațeganu,,45.71772,21.21339,,,,,,
s7100,,Kromberg,,45.72514,21.16025,,,,,,
s7101,,Kromberg,,45.72509,21.1603,,,,,,
s7121,,Sânmihai R. Peco,,45.698356,21.087371,,,,,,
s7140,,Hațeganu,,45.71772,21.21327,,,,,,
s7160,,Hella,,45.79068,21.31876,,,,,,
s7200,,Giarmata Vii Stadion,,45.80051,21.2926,,,,,,
s7201,,Giarmata Vii Stadion,,45.80055,21.29251,,,,,,
s7220,,Zalău,,45.7584,21.20701,,,,,,
s7221,,Zalău,,45.75842,21.20696,,,,,,
s7240,,Căprioarei,,45.75405,21.26359,,,,,,
s7241,,Apateu,,45.74615,21.26277,,,,,,
s7283,,Dudești Primărie,,45.83839,21.09782,,,,,,
s7341,,Rus Savitar,,45.83109,21.10695,,,,,,
s7480,,Miresei,,45.76941,21.22003,,,,,,
s7500,,Liege,,45.77272,21.21711,,,,,,
s7560,,Câmin D.Noi,,45.83624,21.1033,,,,,,
s7620,,Elba,,45.72844,21.16566,,,,,,
s7700,,Cireșului 1,,45.75151,21.18616,,,,,,
s7701,,Cireșului 2,,45.75155,21.18601,,,,,,
s7760,,Parcului,,45.74765,21.28552,,,,,,
s7800,,Muzeul Satului,,45.77708,21.26607,,,,,,
s7820,,Continental,,45.73465,21.26617,,,,,,
s7822,,Ciarda Roșie,,45.72933,21.2697,,,,,,
s7840,,Dacia Service,,45.76966,21.22355,,,,,,
s7900,,Venus,,45.731026,21.2559755,,,,,,
s7920,,Incontro,,45.69953,21.18165,,,,,,
s7940,,Ciocârliei,,45.76025,21.187671,,,,,,
s7960,,Bulevardul Cetății,,45.761681,21.2095505,,,,,,
s7981,,P-ța Maria Tv2,,45.748831,21.219134,,,,,,
s8000,,P-ța Maria Tv,,45.74825,21.21924,,,,,,
s8001,,I.M.L.,,45.75479,21.18759,,,,,,
s8020,,C.A.Rosseti,,45.752,21.18358,,,,,,
s8040,,Elbromplast,,45.73321,21.26991,,,,,,
s8060,,Cocorilor,,45.74938,21.28807,,,,,,
s8061,,Calistrat Hogas,,45.75065,21.28388,,,,,,
s8080,,Piața I. Maniu,,45.73902,21.20885,,,,,,
s8140,,Filipescu,,45.7562575,21.238337,,,,,,
s8160,,Prefectură,,45.75572,21.23691,,,,,,
s8180,,Prefectură 4,,45.7555925,21.2379395,,,,,,
s8200,,Grigore Alexandrescu,,45.77739,21.21155,,,,,,
s8201,,Grigore Alexandrescu,,45.77727,21.21127,,,,,,
s8260,,Teilor G.Vii1,,45.7986055,21.305304,,,,,,
s8261,,Teilor G.Vii2,,45.7983285,21.3030825,,,,,,
s8300,,Pod A. Șaguna,,45.74952,21.22548,,,,,,
s8342,,N.Titulescu,,45.74863,21.21218,,,,,,
s8360,,Jiul,,45.7502,21.21651,,,,,,
s8382,,Girație Dumbrăvița,,45.80776,21.25607,,,,,,
s8400,,I.I. de la Brad,,45.78097,21.23524,,,,,,
s8420,,I. Attila,,45.80545,21.25364,,,,,,
s8421,,Zoltan,,45.80159,21.24877,,,,,,
s8422,,Zoltan,,45.80167,21.24864,,,,,,
s8440,,Piața Bălcescu,,45.79821,21.2442,,,,,,
s8441,,Piața Bălcescu,,45.7983,21.24405,,,,,,
s8460,,I. Attila,,45.80554,21.25351,,,,,,
s8500,,Spitalul de Copii,,45.75531,21.22119,,,,,,
s8520,,Spitalul de Copii,,45.7553,21.22115,,,,,,
s8580,,Pod Uzina de Apă,,45.75909,21.26377,,,,,,
s8600,,Pod Uzina de Apă,,45.75892,21.26408,,,,,,
s8620,,Rozelor,,45.75685,21.27275,,,,,,
s8661,,ROMTRANS,,45.7735505,21.2874615,,,,,,
s8680,,Macilor ,,45.79838,21.2911,,,,,,
s8740,,Tristan Tzara,,45.79041,21.22293,,,,,,
s8820,,Auchan,,45.70325,21.18956,,,,,,
s8821,,Auchan,,45.7048405,21.1882375,,,,,,
s8840,,Telegrafului,,45.7638,21.24736,,,,,,
s8860,,Camping,,45.76914,21.2664295,,,,,,
s8880,,Gara de Sud S,,45.71634,21.20298,,,,,,
s8921,,Cometei,,45.76374,21.27016,,,,,,
s8941,,Izlaz,,45.72074,21.20295,,,,,,
s8942,,Emil Zola,,45.7191,21.20753,,,,,,
s8960,,Albăstrelelor,,45.7452065,21.2803165,,,,,,
s8980,,Plastique Forme,,45.74471,21.27291,,,,,,
s8981,,Plastique Forme,,45.74461,21.27211,,,,,,
s9020,,T.Demetrescu,,45.74825,21.27939,,,,,,
s9080,,Piața Bălcescu,,45.74183,21.22521,,,,,,
s9120,,Electrotimiș,,45.73226,21.26054,,,,,,
s9140,,Galeria 1,,45.76662,21.23089,,,,,,
s9160,,Gara de Est,,45.76757,21.24457,,,,,,
s9180,,Mihai Viteazu,,45.74763,21.22532,,,,,,
s9200,,Scalini,,45.78395,21.20281,,,,,,
s9220,,Piața Huniade,,45.75284,21.22785,,,,,,
s9221,,Parcul Copiilor,,45.75207,21.2334,,,,,,
s9222,,Parcul Copiilor,,45.75156,21.23347,,,,,,
s9260,,Dura,,45.793531,21.319371,,,,,,
s9261,,Shopping City,,45.72599,21.20026,,,,,,
s9300,,Kaufland,,45.78601,21.23694,,,,,,
s9320,,Kaufland,,45.78602,21.23672,,,,,,
s9340,,Fropin,,45.79165,21.23901,,,,,,
s9341,,Fropin,,45.79169,21.23881,,,,,,
s9360,,Moticica,,45.7719145,21.2797725,,,,,,
s9380,,Jiul,,45.76555,21.30041,,,,,,
s9381,,Cometei,,45.76382,21.27016,,,,,,
s9382,,Arena Aqua,,45.76941,21.26956,,,,,,
s9400,,Linar,,45.71562,21.19448,,,,,,
s9420,,Pod Ghiroda,,45.76227,21.30618,,,,,,
s9421,,Primăverii,,45.76323,21.29929,,,,,,
s9422,,Primăverii,,45.76332,21.29954,,,,,,
s9423,,Câmpului,,45.7634,21.29297,,,,,,
s9460,,Banat Car,,45.7747445,21.296327,,,,,,
s9501,,T.Demetrescu,,45.74828,21.27953,,,,,,
s9502,,Albăstrelelor,,45.7452915,21.279077,,,,,,
s9520,,Albina,,45.7138605,21.354013,,,,,,
s9540,,Cămin Cultural,,45.733,21.33404,,,,,,
s9541,,Aurel Cosma,,45.73683,21.3319,,,,,,
s9560,,Aurel Cosma,,45.73654,21.33191,,,,,,
s9580,,Nucilor,,45.71541,21.3243,,,,,,
s9582,,Nucilor,,45.71549,21.32457,,,,,,
s9620,,Urseni Centru,,45.69452,21.30629,,,,,,
s9621,,Urseni Centru,,45.69455,21.30646,,,,,,
s9622,,Grădinița Urseni,,45.69262,21.30781,,,,,,
s9640,,Capăt Urseni,,45.69316,21.30101,,,,,,
s9680,,Cămin Albina,,45.71453,21.37303,,,,,,
s9681,,Albina dj,,45.71064,21.36946,,,,,,
s9682,,Lișiței,,45.71705,21.33349,,,,,,
s9683,,Lișiței,,45.71736,21.33219,,,,,,
s9684,,I.A.S.,,45.7153,21.34397,,,,,,
s9686,,I.A.S.,,45.71554,21.3422,,,,,,
s9701,,Piața Gheorghe Domășnean,,45.73306,21.26033,,,,,,
s9720,,Castel,,45.72342,21.29658,,,,,,
s9721,,Castel,,45.72357,21.29651,,,,,,
s9722,,Monica,,45.72247,21.30193,,,,,,
s9723,,Monica,,45.72274,21.30144,,,,,,
s9780,,C. Radu,,45.72573,21.26765,,,,,,
s9781,,C.Radu,,45.72568,21.26779,,,,,,
s9782,,D. Dinicu,,45.72251,21.26351,,,,,,
s9783,,D.Dinicu,,45.72257,21.26386,,,,,,
s9840,,Incontro intrare,,45.698954,21.184645,,,,,,
s9860,,Berlin,,45.72324,21.29991,,,,,,
s9861,,Florența,,45.72538,21.30085,,,,,,
s9862,,Viena,,45.72853,21.30196,,,,,,
s9863,,Concordiei,,45.73174,21.30631,,,,,,
s9865,,Arlechino,,45.73325,21.3122,,,,,,
s9866,,Munteniei,,45.73471,21.31797,,,,,,
s9867,,Intrare MV,,45.73642,21.32453,,,,,,
s9880,,Tineret,,45.73802,21.3301,,,,,,
s9900,,Berlin,,45.72319,21.30011,,,,,,
s9901,,Florența,,45.7254,21.30069,,,,,,
s9902,,Viena,,45.72857,21.3018,,,,,,
s9903,,Concordiei,,45.73162,21.30643,,,,,,
s9904,,Arlechino,,45.73312,21.31235,,,,,,
s9905,,Munteniei,,45.7346,21.31805,,,,,,
s9906,,Intrare MV,,45.73647,21.32428,,,,,,
s9907,,Tineret,,45.73807,21.32973,,,,,,
s9920,,Rudicica,,45.7103805,21.2793525,,,,,,
s9921,,Rudicica,,45.719173,21.267322,,,,,,
s9941,,Mistrețul,,45.70081,21.31537,,,,,,
s9980,,Azur,,45.74455,21.268148,,,,,,
